[
    {
      "id": "1a2b3c",
      "name": "Amit Sharma",
      "age": 29,
      "latitude": 28.7041,
      "longitude": 77.1025,
      "cabno": "DL 01 AB 1234",
      "dlno": "DL-012345678910"
    },
    {
      "id": "2b3c4d",
      "name": "Priya Verma",
      "age": 24,
      "latitude": 28.6517,
      "longitude": 77.2219,
      "cabno": "DL 02 XY 5678",
      "dlno": "DL-023456789101"
    },
    {
      "id": "3c4d5e",
      "name": "Rahul Gupta",
      "age": 35,
      "latitude": 28.6448,
      "longitude": 77.2167,
      "cabno": "DL 03 CD 9101",
      "dlno": "DL-034567891012"
    },
    {
      "id": "4d5e6f",
      "name": "Neha Patel",
      "age": 27,
      "latitude": 28.6100,
      "longitude": 77.2300,
      "cabno": "DL 04 EF 2345",
      "dlno": "DL-045678910123"
    },
    {
      "id": "5e6f7g",
      "name": "Vikram Rao",
      "age": 31,
      "latitude": 28.6692,
      "longitude": 77.4538,
      "cabno": "DL 05 GH 6789",
      "dlno": "DL-056789101234"
    },
    {
      "id": "6f7g8h",
      "name": "Sanjay Mehta",
      "age": 40,
      "latitude": 28.7041,
      "longitude": 77.1025,
      "cabno": "DL 06 IJ 1122",
      "dlno": "DL-067891012345"
    },
    {
      "id": "7g8h9i",
      "name": "Ananya Bose",
      "age": 22,
      "latitude": 28.6139,
      "longitude": 77.2090,
      "cabno": "DL 07 KL 3344",
      "dlno": "DL-078910123456"
    },
    {
      "id": "8h9i0j",
      "name": "Rohan Khanna",
      "age": 28,
      "latitude": 28.5355,
      "longitude": 77.3910,
      "cabno": "DL 08 MN 5566",
      "dlno": "DL-089101234567"
    },
    {
      "id": "9i0j1k",
      "name": "Meera Nair",
      "age": 33,
      "latitude": 28.5672,
      "longitude": 77.2100,
      "cabno": "DL 09 OP 7788",
      "dlno": "DL-091012345678"
    },
    {
      "id": "0j1k2l",
      "name": "Arjun Deshmukh",
      "age": 26,
      "latitude": 28.4595,
      "longitude": 77.0266,
      "cabno": "DL 10 QR 9900",
      "dlno": "DL-101234567890"
    },
    {
      "id": "1k2l3m",
      "name": "Rajesh Kumar",
      "age": 37,
      "latitude": 28.7041,
      "longitude": 77.1025,
      "cabno": "DL 11 ST 2233",
      "dlno": "DL-112345678901"
    },
    {
      "id": "2l3m4n",
      "name": "Sunita Yadav",
      "age": 30,
      "latitude": 28.5355,
      "longitude": 77.3910,
      "cabno": "DL 12 UV 4455",
      "dlno": "DL-123456789012"
    }
  ]  